[
    {"name": "Duke University", "city": "Durham, NC, USA", "latitude": 36.0014, "longitude": -78.9382},
    {"name": "Monash University", "city": "Melbourne, Australia", "latitude": -37.8136, "longitude": 144.9631},
    {"name": "University of Lisbon", "city": "Lisbon, Portugal", "latitude": 38.7169, "longitude": -9.1395},
    {"name": "University of Surrey", "city": "Guildford, England", "latitude": 51.2360, "longitude": -0.5784},
    {"name": "EPFL", "city": "Lausanne, Switzerland", "latitude": 46.5197, "longitude": 6.6332},
    {"name": "University of Jyv채skyl채", "city": "Jyv채skyl채, Finland", "latitude": 62.2427, "longitude": 25.7475},
    {"name": "St. Mary's University", "city": "Halifax, Canada", "latitude": 44.6360, "longitude": -63.5860},
    {"name": "University of Rijeka", "city": "Rijeka, Croatia", "latitude": 45.3261, "longitude": 14.4422},
    {"name": "Brookhaven National Laboratory", "city": "Upton, NY, USA", "latitude": 40.8635, "longitude": -72.8833},
    {"name": "MPI for Intelligent Systems", "city": "Stuttgart, Germany", "latitude": 48.7815, "longitude": 9.1788},
    {"name": "McMaster University", "city": "Hamilton, Canada", "latitude": 43.2557, "longitude": -79.8711},
    {"name": "Chinese Academy of Sciences", "city": "Beijing, China", "latitude": 39.9800, "longitude": 116.3187},
    {"name": "Konkoly Observatory", "city": "Budapest, Hungary", "latitude": 47.1293, "longitude": 18.9794},
    {"name": "University of Edinburgh", "city": "Edinburgh, Scotland", "latitude": 55.9444, "longitude": -3.1880},
    {"name": "Brandeis University", "city": "Waltham, Massachusetts, USA", "latitude": 42.3681, "longitude": -71.2584},
    {"name": "UPC Barcelona", "city": "Barcelona, Spain", "latitude": 41.3884, "longitude": 2.1915},
    {"name": "University of Valencia", "city": "Valencia, Spain", "latitude": 39.4743, "longitude": -0.3966},
    {"name": "SUNY - Stony Brook", "city": "Stony Brook, USA", "latitude": 40.9127, "longitude": -73.1271},
    {"name": "University of Alabama", "city": "Tuscaloosa, Alabama, USA", "latitude": 33.2098, "longitude": -87.5585},
    {"name": "Argonne National Laboratory", "city": "Chicago, IL, USA", "latitude": 41.7100, "longitude": -88.2098},
    {"name": "Oak Ridge National Laboratory", "city": "Oak Ridge, TN, USA", "latitude": 35.8827, "longitude": -84.3148},
    {"name": "University of York", "city": "York, UK", "latitude": 53.9583, "longitude": -1.0815},
    {"name": "Michigan State University", "city": "East Lansing, MI, USA", "latitude": 42.7275, "longitude": -84.4822},
    {"name": "Goethe University of Frankfurt", "city": "Frankfurt, Germany", "latitude": 50.1180, "longitude": 8.6622},
    {"name": "Arizona State University", "city": "Tempe, Arizona, USA", "latitude": 33.4194, "longitude": -111.9375},
    {"name": "University of Hull", "city": "Hull, UK", "latitude": 53.7800, "longitude": -0.3225},
    {"name": "Observatory of Torino", "city": "Turin, Italy", "latitude": 45.0655, "longitude": 7.6697},
    {"name": "Los Alamos National Laboratory", "city": "Los Alamos, NM, USA", "latitude": 35.8800, "longitude": -106.3020},
    {"name": "University of Victoria", "city": "Victoria, BC, Canada", "latitude": 48.4640, "longitude": -123.3090},
    {"name": "Keele University", "city": "Keele, UK", "latitude": 53.0086, "longitude": -2.3100}
]
